{
  "scenario_name": "Expanded Smart Agriculture Network",
  "description": "A further expanded network blueprint for smart agriculture with additional LoRa devices.",
  "test_duration": "3 hours",
  "network_devices": {
    "lora_gateways": [
      {
        "gateway_name": "GW-RAK-ROOF",
        "gateway_description": "Main Gateway on Building 9",
        "geo_latitude": 38.10351066811096,
        "geo_longitude": 13.3459399220741,
        "altitude_meters": 30,
        "unique_id": "05b0da50148fd6b1"
      }
    ],
    "lora_endpoints": [
      {
        "device_type": "Farm Management System",
        "device_name": "FMS-001",
        "deployment_location": "Farm Office",
        "tasks": [
          "Crop Monitoring",
          "Irrigation Control",
          "Data Analysis"
        ],
        "device_eui": "629b560f15ed4565",
        "geo_latitude": 38.10863528672466,
        "geo_longitude": 13.34050633101243,
        "security_key": "56a31fdf2a92f61bbc3c0e07bbd0f7d3"
      },
      {
        "device_type": "Soil Moisture Sensor",
        "device_name": "SMS-001",
        "deployment_location": "Field A",
        "device_eui": "96b18ec6b841f6b6",
        "security_key": "5d43d73ea0b4095ca8162c3633fe4981",
        "sensor_type": "Capacitive",
        "transmission_rate": "1 Kbps",
        "geo_latitude": 38.10863528672466,
        "geo_longitude": 13.34050633101243
      },
      {
        "device_type": "Weather Station",
        "device_name": "WS-001",
        "deployment_location": "Field B",
        "device_eui": "4af31c0e9fa1d5de",
        "geo_latitude": 38.10863528672466,
        "geo_longitude": 13.34050633101243,
        "security_key": "36ad40bd675a8a68ad887c15bee482c4",
        "monitored_parameters": [
          "Temperature",
          "Humidity",
          "Wind Speed"
        ],
        "transmission_rate": "5 Kbps"
      },
      {
        "device_type": "Irrigation Controller",
        "device_name": "IC-001",
        "deployment_location": "Field C",
        "device_eui": "197ba985d7822c4a",
        "geo_latitude": 38.10863528672466,
        "geo_longitude": 13.34050633101243,
        "security_key": "962d281e76f988fc326bd30c6f617535",
        "control_mode": "Automatic",
        "flow_rate": "10 L/min"
      },
      {
        "device_type": "Drone",
        "device_name": "DR-001",
        "deployment_location": "Aerial",
        "device_eui": "7c3142d87f67a1f3",
        "geo_latitude": 38.10863528672466,
        "geo_longitude": 13.34050633101243,
        "security_key": "dc7063e10207358949a771e7053f598",
        "objective": "Crop Surveillance",
        "flight_duration": "30 minutes"
      },
      {
        "device_type": "Soil pH Sensor",
        "device_name": "PHS-001",
        "deployment_location": "Field D",
        "device_eui": "2b4a7c9d01e3f456",
        "geo_latitude": 38.1090123456789,
        "geo_longitude": 13.3410001234567,
        "security_key": "a1b2c3d4e5f678901234567890abcdef",
        "sensor_type": "Electrochemical",
        "transmission_rate": "2 Kbps"
      },
      {
        "device_type": "Light Intensity Sensor",
        "device_name": "LIS-001",
        "deployment_location": "Greenhouse A",
        "device_eui": "8d5e6f7a9b2c1d3e",
        "geo_latitude": 38.1078901234567,
        "geo_longitude": 13.3398765432109,
        "security_key": "f0e9d8c7b6a54321fedcba9876543210",
        "sensor_type": "Photodiode",
        "transmission_rate": "1.5 Kbps"
      },
      {
        "device_type": "Livestock Tracker",
        "device_name": "LT-001",
        "deployment_location": "Pasture Area",
        "device_eui": "1a2b3c4d5e6f7g8h",
        "geo_latitude": 38.1023456789012,
        "geo_longitude": 13.3445678901234,
        "security_key": "0123456789abcdef0123456789abcdef",
        "tracked_animal": "Cattle",
        "transmission_rate": "0.5 Kbps"
      },
       {
        "device_type": "Water Level Sensor",
        "device_name": "WLS-001",
        "deployment_location": "Reservoir",
        "device_eui": "987f6e5d4c3b2a10",
         "geo_latitude": 38.1067890123456,
        "geo_longitude": 13.3432109876543,
        "security_key": "abcdef0123456789abcdef0123456789",
          "sensor_type":"Ultrasonic",
          "transmission_rate":"1 Kbps"
        },
        {
          "device_type":"Fence Monitor",
          "device_name":"FM-001",
          "deployment_location":"Perimeter",
          "device_eui":"1234567890abcdef",
           "geo_latitude": 38.1056789012345,
          "geo_longitude":13.3421098765432,
           "security_key":"fedcba9876543210fedcba9876543210",
           "sensor_type":"Voltage Sensor",
           "transmission_rate":"0.2 Kbps"

        },
        {
          "device_type":"Leaf Wetness Sensor",
          "device_name":"LWS-001",
          "deployment_location":"Vineyard",
           "device_eui":"0a9b8c7d6e5f4321",
          "geo_latitude":38.1045678901234,
          "geo_longitude": 13.3410987654321,
           "security_key":"90abcdef1234567890abcdef12345678",
            "sensor_type":"Capacitive",
            "transmission_rate":"0.8 Kbps"

        }
    ]
  }
}